$PTNL,AVR,140143.00,+17.7861,Yaw,-0.6458,Tilt,,,0.314,3,2.0,12*07
$GNGGA,140143.00,4846.40137187,N,00854.72613730,E,1,13,0.9,417.713,M,48.645,M,,*7B
$GNGST,140143.00,3.365,0.997,0.835,76.0,0.845,0.988,2.011*73
$PTNL,VHD,140143.00,042020,0.000,0.000,0.000,0.000,0.000,0.000,1,13,1.6,M*0E
$PTNL,AVR,140143.50,+17.0064,Yaw,-0.1560,Tilt,,,0.316,3,2.0,12*07
$GNGGA,140143.50,4846.40137234,N,00854.72613872,E,1,13,0.9,417.693,M,48.645,M,,*75
$GNGST,140143.50,3.346,1.007,0.850,71.8,0.866,0.992,2.161*76
$PTNL,VHD,140143.50,042020,0.000,0.000,0.000,0.000,0.000,0.000,1,13,1.6,M*0B
$PTNL,AVR,140144.00,+17.0386,Yaw,-0.0461,Tilt,,,0.318,3,2.0,12*05
$GNGGA,140144.00,4846.40137284,N,00854.72614018,E,1,13,0.9,417.673,M,48.645,M,,*71
$GNGST,140144.00,3.271,0.997,0.834,76.0,0.845,0.988,2.011*71
$PTNL,VHD,140144.00,042020,0.000,0.000,0.000,0.000,0.000,0.000,1,13,1.6,M*09
$PTNL,AVR,140144.50,+16.4608,Yaw,+1.9166,Tilt,,,0.315,3,2.0,12*07
$GNGGA,140144.50,4846.40137406,N,00854.72614165,E,1,13,0.9,417.652,M,48.645,M,,*70
$GNGST,140144.50,3.264,0.997,0.832,75.9,0.842,0.988,2.011*7B
$PTNL,VHD,140144.50,042020,0.000,0.000,0.000,0.000,0.000,0.000,1,13,1.6,M*0C
$PTNL,AVR,140145.00,+16.9534,Yaw,+2.1372,Tilt,,,0.314,3,2.0,12*0F
$GNGGA,140145.00,4846.40137551,N,00854.72614295,E,1,13,0.9,417.630,M,48.645,M,,*7F
$GNGST,140145.00,3.099,0.997,0.830,76.0,0.840,0.988,2.010*74
$PTNL,VHD,140145.00,042020,0.000,0.000,0.000,0.000,0.000,0.000,1,13,1.6,M*08
$PTNL,AVR,140145.50,+16.9317,Yaw,+0.2473,Tilt,,,0.316,3,2.0,12*08
$GNGGA,140145.50,4846.40137716,N,00854.72614417,E,1,13,0.9,417.609,M,48.645,M,,*7D
$GNGST,140145.50,3.003,0.997,0.828,75.9,0.839,0.988,2.000*7E
$PTNL,VHD,140145.50,042020,0.000,0.000,0.000,0.000,0.000,0.000,1,13,1.6,M*0D
$PTNL,AVR,140146.00,+17.0145,Yaw,+0.7527,Tilt,,,0.316,3,2.0,12*06
$GNGGA,140146.00,4846.40137885,N,00854.72614531,E,1,13,0.9,417.588,M,48.645,M,,*71
$GNGST,140146.00,2.835,0.997,0.828,76.0,0.839,0.988,2.012*7D
$PTNL,VHD,140146.00,042020,0.000,0.000,0.000,0.000,0.000,0.000,1,13,1.6,M*0B
$PTNL,AVR,140146.50,+17.4642,Yaw,+0.6239,Tilt,,,0.316,3,2.0,12*0E
$GNGGA,140146.50,4846.40138061,N,00854.72614639,E,1,13,0.9,417.567,M,48.645,M,,*73
$GNGST,140146.50,2.770,0.996,0.827,76.0,0.838,0.987,1.998*7E
$PTNL,VHD,140146.50,042020,0.000,0.000,0.000,0.000,0.000,0.000,1,13,1.6,M*0E
$PTNL,AVR,140147.00,+17.0233,Yaw,-0.1766,Tilt,,,0.314,3,2.0,12*00
$GNGGA,140147.00,4846.40138238,N,00854.72614743,E,1,13,0.9,417.546,M,48.645,M,,*76
$GNGST,140147.00,2.683,0.996,0.827,76.0,0.838,0.987,2.001*7D
$PTNL,VHD,140147.00,042020,0.000,0.000,0.000,0.000,0.000,0.000,1,13,1.6,M*0A
$PTNL,AVR,140147.50,+17.0055,Yaw,-1.2519,Tilt,,,0.315,3,2.0,12*0E
$GNGGA,140147.50,4846.40138417,N,00854.72614845,E,1,13,0.9,417.525,M,48.645,M,,*74
$GNGST,140147.50,2.699,0.996,0.827,76.0,0.838,0.987,1.997*76
$PTNL,VHD,140147.50,042020,0.000,0.000,0.000,0.000,0.000,0.000,1,13,1.6,M*0F
$PTNL,AVR,140148.00,+17.5937,Yaw,-0.3255,Tilt,,,0.319,3,2.0,12*0F
$GNGGA,140148.00,4846.40138592,N,00854.72614949,E,1,13,0.9,417.505,M,48.645,M,,*7D
$GNGST,140148.00,2.733,0.996,0.827,76.0,0.838,0.987,1.997*7D
$PTNL,VHD,140148.00,042020,0.000,0.000,0.000,0.000,0.000,0.000,1,13,1.6,M*05
$PTNL,AVR,140148.50,+17.1966,Yaw,+0.8912,Tilt,,,0.319,3,2.0,12*0F
$GNGGA,140148.50,4846.40138763,N,00854.72615052,E,1,13,0.9,417.485,M,48.645,M,,*7F
$GNGST,140148.50,2.723,0.996,0.827,76.0,0.838,0.987,1.993*7D
$PTNL,VHD,140148.50,042020,0.000,0.000,0.000,0.000,0.000,0.000,1,13,1.6,M*00
$PTNL,AVR,140149.00,+17.3205,Yaw,+0.7704,Tilt,,,0.315,3,2.0,12*0D
$GNGGA,140149.00,4846.40138932,N,00854.72615158,E,1,13,0.9,417.465,M,48.645,M,,*74
$GNGST,140149.00,2.716,0.995,0.827,76.0,0.838,0.986,1.997*79
$PTNL,VHD,140149.00,042020,0.000,0.000,0.000,0.000,0.000,0.000,1,13,1.6,M*04
$PTNL,AVR,140149.50,+17.1824,Yaw,-0.0149,Tilt,,,0.317,3,2.0,12*0F
$GNGGA,140149.50,4846.40139099,N,00854.72615267,E,1,13,0.9,417.445,M,48.645,M,,*75
$GNGST,140149.50,2.751,0.995,0.826,75.9,0.837,0.986,1.980*7D
$PTNL,VHD,140149.50,042020,0.000,0.000,0.000,0.000,0.000,0.000,1,13,1.6,M*01
$PTNL,AVR,140150.00,+17.6787,Yaw,+0.0747,Tilt,,,0.313,3,2.0,12*09
$GNGGA,140150.00,4846.40139267,N,00854.72615379,E,1,13,0.9,417.425,M,48.645,M,,*73
$GNGST,140150.00,2.800,0.994,0.826,75.7,0.837,0.985,1.969*70
$PTNL,VHD,140150.00,042020,0.000,0.000,0.000,0.000,0.000,0.000,1,13,1.6,M*0C
$PTNL,AVR,140150.50,+17.3862,Yaw,+0.3000,Tilt,,,0.314,3,2.0,12*0D
$GNGGA,140150.50,4846.40139430,N,00854.72615495,E,1,13,0.9,417.406,M,48.645,M,,*76
$GNGST,140150.50,2.856,0.994,0.826,75.7,0.837,0.985,1.971*7F
$PTNL,VHD,140150.50,042020,0.000,0.000,0.000,0.000,0.000,0.000,1,13,1.6,M*09
$PTNL,AVR,140151.00,+17.0035,Yaw,-0.6108,Tilt,,,0.317,3,2.0,12*09
$GNGGA,140151.00,4846.40139588,N,00854.72615613,E,1,13,0.9,417.386,M,48.645,M,,*73
$GNGST,140151.00,2.908,0.994,0.825,75.6,0.836,0.984,1.955*75
$PTNL,VHD,140151.00,042020,0.000,0.000,0.000,0.000,0.000,0.000,1,13,1.6,M*0D
$PTNL,AVR,140151.50,+16.9312,Yaw,+1.1306,Tilt,,,0.319,3,2.0,12*00
$GNGGA,140151.50,4846.40139742,N,00854.72615732,E,1,13,0.9,417.368,M,48.645,M,,*70
$GNGST,140151.50,2.915,0.994,0.825,75.6,0.837,0.984,1.966*7D
$PTNL,VHD,140151.50,042020,0.000,0.000,0.000,0.000,0.000,0.000,1,13,1.6,M*08
$PTNL,AVR,140152.00,+17.1561,Yaw,-0.5286,Tilt,,,0.317,3,2.0,12*09
$GNGGA,140152.00,4846.40139888,N,00854.72615854,E,1,13,0.9,417.349,M,48.645,M,,*73
$GNGST,140152.00,2.967,0.995,0.830,76.5,0.840,0.987,1.987*77
$PTNL,VHD,140152.00,042020,0.000,0.000,0.000,0.000,0.000,0.000,1,13,1.6,M*0E
$PTNL,AVR,140152.50,+17.6423,Yaw,-0.4001,Tilt,,,0.315,3,2.0,12*02
$GNGGA,140152.50,4846.40140030,N,00854.72615971,E,1,13,0.9,417.331,M,48.645,M,,*7A
$GNGST,140152.50,3.051,0.996,0.830,76.8,0.840,0.988,1.985*7C
$PTNL,VHD,140152.50,042020,0.000,0.000,0.000,0.000,0.000,0.000,1,13,1.6,M*0B
$PTNL,AVR,140153.00,+17.5452,Yaw,-0.2796,Tilt,,,0.318,3,2.0,12*01
$GNGGA,140153.00,4846.40140163,N,00854.72616088,E,1,13,0.9,417.313,M,48.645,M,,*75
$GNGST,140153.00,3.182,0.994,0.826,75.9,0.837,0.985,1.969*7F
$PTNL,VHD,140153.00,042020,0.000,0.000,0.000,0.000,0.000,0.000,1,13,1.6,M*0F
$PTNL,AVR,140153.50,+17.3463,Yaw,+0.5810,Tilt,,,0.314,3,2.0,12*0C
$GNGGA,140153.50,4846.40140295,N,00854.72616206,E,1,13,0.9,417.295,M,48.645,M,,*71
$GNGST,140153.50,3.164,0.994,0.826,75.7,0.837,0.984,1.963*77
$PTNL,VHD,140153.50,042020,0.000,0.000,0.000,0.000,0.000,0.000,1,13,1.6,M*0A
$PTNL,AVR,140154.00,+17.4270,Yaw,+0.3788,Tilt,,,0.317,3,2.0,12*06
$GNGGA,140154.00,4846.40140419,N,00854.72616320,E,1,13,0.9,417.278,M,48.645,M,,*77
$GNGST,140154.00,3.335,0.994,0.826,75.8,0.837,0.984,1.972*7C
$PTNL,VHD,140154.00,042020,0.000,0.000,0.000,0.000,0.000,0.000,1,13,1.6,M*08
$PTNL,AVR,140154.50,+16.8806,Yaw,+0.3363,Tilt,,,0.319,3,2.0,12*0A
$GNGGA,140154.50,4846.40140544,N,00854.72616433,E,1,13,0.9,417.261,M,48.645,M,,*76
$GNGST,140154.50,3.367,0.993,0.825,75.7,0.836,0.984,1.956*72
$PTNL,VHD,140154.50,042020,0.000,0.000,0.000,0.000,0.000,0.000,1,13,1.6,M*0D
$PTNL,AVR,140155.00,+17.1264,Yaw,+0.6626,Tilt,,,0.312,3,2.0,12*02
$GNGGA,140155.00,4846.40140671,N,00854.72616550,E,1,13,0.9,417.244,M,48.645,M,,*74
$GNGST,140155.00,3.304,0.993,0.825,75.6,0.836,0.983,1.954*77
$PTNL,VHD,140155.00,042020,0.000,0.000,0.000,0.000,0.000,0.000,1,13,1.6,M*09
$PTNL,AVR,140155.50,+17.0725,Yaw,-0.0041,Tilt,,,0.315,3,2.0,12*06
$GNGGA,140155.50,4846.40140795,N,00854.72616670,E,1,13,0.9,417.227,M,48.645,M,,*7E
$GNGST,140155.50,3.291,0.992,0.825,75.5,0.836,0.983,1.947*7F
$PTNL,VHD,140155.50,042020,0.000,0.000,0.000,0.000,0.000,0.000,1,13,1.6,M*0C
$PTNL,AVR,140156.00,+17.4070,Yaw,-0.4513,Tilt,,,0.315,3,2.0,12*05
$GNGGA,140156.00,4846.40140911,N,00854.72616788,E,1,13,0.9,417.210,M,48.645,M,,*78
$GNGST,140156.00,3.310,0.992,0.825,75.5,0.836,0.983,1.950*77
$PTNL,VHD,140156.00,042020,0.000,0.000,0.000,0.000,0.000,0.000,1,13,1.6,M*0A
$PTNL,AVR,140156.50,+17.5765,Yaw,-0.5163,Tilt,,,0.314,3,2.0,12*01
$GNGGA,140156.50,4846.40141025,N,00854.72616904,E,1,13,0.9,417.194,M,48.645,M,,*77
$GNGST,140156.50,3.297,0.992,0.824,75.5,0.836,0.982,1.947*7A
$PTNL,VHD,140156.50,042020,0.000,0.000,0.000,0.000,0.000,0.000,1,13,1.6,M*0F
$PTNL,AVR,140157.00,+16.9710,Yaw,+0.6306,Tilt,,,0.315,3,2.0,12*0F
$GNGGA,140157.00,4846.40141135,N,00854.72617021,E,1,13,0.9,417.177,M,48.645,M,,*71
$GNGST,140157.00,3.228,0.992,0.824,75.3,0.835,0.982,1.935*7A
$PTNL,VHD,140157.00,042020,0.000,0.000,0.000,0.000,0.000,0.000,1,13,1.6,M*0B
$PTNL,AVR,140157.50,+17.1623,Yaw,+0.8820,Tilt,,,0.316,3,2.0,12*00
$GNGGA,140157.50,4846.40141245,N,00854.72617145,E,1,13,0.9,417.161,M,48.645,M,,*74
$GNGST,140157.50,3.194,0.993,0.823,75.4,0.835,0.983,1.929*76
$PTNL,VHD,140157.50,042020,0.000,0.000,0.000,0.000,0.000,0.000,1,13,1.6,M*0E
$PTNL,AVR,140158.00,+16.6824,Yaw,+1.4438,Tilt,,,0.319,3,2.0,12*02
$GNGGA,140158.00,4846.40141356,N,00854.72617284,E,1,13,0.9,417.145,M,48.645,M,,*75
$GNGST,140158.00,3.361,0.991,0.822,75.0,0.834,0.981,1.932*7A
$PTNL,VHD,140158.00,042020,0.000,0.000,0.000,0.000,0.000,0.000,1,13,1.6,M*04
$PTNL,AVR,140158.50,+17.4390,Yaw,+1.2547,Tilt,,,0.317,3,2.0,12*01
$GNGGA,140158.50,4846.40141450,N,00854.72617413,E,1,13,0.9,417.130,M,48.645,M,,*7B
$GNGST,140158.50,3.403,0.991,0.823,75.1,0.835,0.981,1.935*7A
$PTNL,VHD,140158.50,042020,0.000,0.000,0.000,0.000,0.000,0.000,1,13,1.6,M*01
$PTNL,AVR,140159.00,+17.1273,Yaw,+1.1503,Tilt,,,0.317,3,2.0,12*0F
$GNGGA,140159.00,4846.40141549,N,00854.72617551,E,1,13,0.9,417.114,M,48.645,M,,*77
$GNGST,140159.00,3.387,0.990,0.821,74.7,0.834,0.979,1.930*72
$PTNL,VHD,140159.00,042020,0.000,0.000,0.000,0.000,0.000,0.000,1,13,1.6,M*05
$PTNL,AVR,140159.50,+18.5235,Yaw,+0.6391,Tilt,,,0.318,3,2.0,12*07
$GNGGA,140159.50,4846.40141636,N,00854.72617683,E,1,13,0.9,417.099,M,48.645,M,,*71
$GNGST,140159.50,3.362,0.991,0.822,74.9,0.835,0.980,1.935*72
$PTNL,VHD,140159.50,042020,0.000,0.000,0.000,0.000,0.000,0.000,1,13,1.6,M*00
$PTNL,AVR,140200.00,+17.3730,Yaw,-0.1459,Tilt,,,0.315,3,2.0,12*0B
$GNGGA,140200.00,4846.40141737,N,00854.72617832,E,1,13,0.9,417.083,M,48.645,M,,*74
$GNGST,140200.00,3.309,0.989,0.820,74.4,0.834,0.978,1.933*73
$PTNL,VHD,140200.00,042020,0.000,0.000,0.000,0.000,0.000,0.000,1,13,1.6,M*0A
$PTNL,AVR,140200.50,+18.2830,Yaw,-1.4512,Tilt,,,0.318,3,2.0,12*08
$GNGGA,140200.50,4846.40141816,N,00854.72617965,E,1,13,0.9,417.069,M,48.645,M,,*7A
$GNGST,140200.50,3.367,0.991,0.825,75.5,0.837,0.982,1.934*73
$PTNL,VHD,140200.50,042020,0.000,0.000,0.000,0.000,0.000,0.000,1,13,1.6,M*0F
$PTNL,AVR,140201.00,+17.1409,Yaw,-0.5091,Tilt,,,0.313,3,2.0,12*03
$GNGGA,140201.00,4846.40141890,N,00854.72618093,E,1,13,0.9,417.055,M,48.645,M,,*70
$GNGST,140201.00,3.501,0.991,0.823,75.1,0.835,0.980,1.936*71
$PTNL,VHD,140201.00,042020,0.000,0.000,0.000,0.000,0.000,0.000,1,13,1.6,M*0B
$PTNL,AVR,140201.50,+17.2859,Yaw,+0.4236,Tilt,,,0.314,3,2.0,12*03
$GNGGA,140201.50,4846.40141960,N,00854.72618215,E,1,13,0.9,417.041,M,48.645,M,,*72
$GNGST,140201.50,3.562,0.991,0.823,75.2,0.835,0.981,1.941*73
$PTNL,VHD,140201.50,042020,0.000,0.000,0.000,0.000,0.000,0.000,1,13,1.6,M*0E
$PTNL,AVR,140202.00,+17.2849,Yaw,-0.1625,Tilt,,,0.317,3,2.0,12*02
$GNGGA,140202.00,4846.40142047,N,00854.72618353,E,1,13,0.9,417.026,M,48.645,M,,*79
$GNGST,140202.00,3.531,0.988,0.816,73.9,0.830,0.976,1.830*7A
$PTNL,VHD,140202.00,042020,0.000,0.000,0.000,0.000,0.000,0.000,1,13,1.6,M*08
$PTNL,AVR,140202.50,+17.9714,Yaw,+0.5369,Tilt,,,0.314,3,2.0,12*07
$GNGGA,140202.50,4846.40142119,N,00854.72618483,E,1,13,0.9,417.012,M,48.645,M,,*7B
$GNGST,140202.50,3.545,0.987,0.815,73.7,0.830,0.975,1.828*74
$PTNL,VHD,140202.50,042020,0.000,0.000,0.000,0.000,0.000,0.000,1,13,1.6,M*0D
$PTNL,AVR,140203.00,+18.0001,Yaw,-0.0328,Tilt,,,0.313,3,2.0,12*07
$GNGGA,140203.00,4846.40142193,N,00854.72618616,E,1,13,0.9,416.998,M,48.645,M,,*79
$GNGST,140203.00,3.611,0.986,0.814,73.4,0.829,0.973,1.828*7F
$PTNL,VHD,140203.00,042020,0.000,0.000,0.000,0.000,0.000,0.000,1,13,1.6,M*09
$PTNL,AVR,140203.50,+17.7652,Yaw,+0.2705,Tilt,,,0.318,3,2.0,12*0E
$GNGGA,140203.50,4846.40142246,N,00854.72618733,E,1,13,0.9,416.986,M,48.645,M,,*7E
$GNGST,140203.50,3.608,0.988,0.820,74.3,0.834,0.977,1.930*7B
$PTNL,VHD,140203.50,042020,0.000,0.000,0.000,0.000,0.000,0.000,1,13,1.6,M*0C
$PTNL,AVR,140204.00,+17.1440,Yaw,-0.8792,Tilt,,,0.315,3,2.0,12*04
$GNGGA,140204.00,4846.40142298,N,00854.72618843,E,1,13,0.9,416.973,M,48.645,M,,*7D
$GNGST,140204.00,3.552,0.989,0.822,74.8,0.834,0.979,1.926*74
$PTNL,VHD,140204.00,042020,0.000,0.000,0.000,0.000,0.000,0.000,1,13,1.6,M*0E
$PTNL,AVR,140204.50,+17.8627,Yaw,+0.7321,Tilt,,,0.316,3,2.0,12*0D
$GNGGA,140204.50,4846.40142347,N,00854.72618948,E,1,13,0.9,416.961,M,48.645,M,,*72
$GNGST,140204.50,3.693,0.990,0.823,75.1,0.835,0.980,1.932*7C
$PTNL,VHD,140204.50,042020,0.000,0.000,0.000,0.000,0.000,0.000,1,13,1.6,M*0B
$PTNL,AVR,140205.00,+17.6173,Yaw,+1.4526,Tilt,,,0.313,3,2.0,12*07
$GNGGA,140205.00,4846.40142403,N,00854.72619053,E,1,13,0.9,416.949,M,48.645,M,,*79
$GNGST,140205.00,4.318,0.988,0.816,74.0,0.830,0.976,1.828*70
$PTNL,VHD,140205.00,042020,0.000,0.000,0.000,0.000,0.000,0.000,1,13,1.6,M*0F
$PTNL,AVR,140205.50,+17.3840,Yaw,-0.0579,Tilt,,,0.316,3,2.0,12*02
$GNGGA,140205.50,4846.40142462,N,00854.72619164,E,1,13,0.9,416.936,M,48.645,M,,*76
$GNGST,140205.50,4.652,0.987,0.815,73.6,0.830,0.974,1.828*71
$PTNL,VHD,140205.50,042020,0.000,0.000,0.000,0.000,0.000,0.000,1,13,1.6,M*0A
$PTNL,AVR,140206.00,+17.3644,Yaw,+0.6080,Tilt,,,0.315,3,2.0,12*0E
$GNGGA,140206.00,4846.40142516,N,00854.72619276,E,1,13,0.9,416.924,M,48.645,M,,*71
$GNGST,140206.00,5.034,0.986,0.814,73.4,0.829,0.973,1.828*7D
$PTNL,VHD,140206.00,042020,0.000,0.000,0.000,0.000,0.000,0.000,1,13,1.6,M*0C
$PTNL,AVR,140206.50,+17.6545,Yaw,-0.3449,Tilt,,,0.312,3,2.0,12*09
$GNGGA,140206.50,4846.40142556,N,00854.72619372,E,1,13,0.9,416.913,M,48.645,M,,*71
$GNGST,140206.50,5.292,0.987,0.819,74.2,0.833,0.976,1.920*7C
$PTNL,VHD,140206.50,042020,0.000,0.000,0.000,0.000,0.000,0.000,1,13,1.6,M*09
$PTNL,AVR,140207.00,+17.4155,Yaw,-0.2765,Tilt,,,0.317,3,2.0,12*03
$GNGGA,140207.00,4846.40142599,N,00854.72619467,E,1,13,0.9,416.902,M,48.645,M,,*75
$GNGST,140207.00,5.589,0.987,0.815,73.8,0.830,0.974,1.827*73
$PTNL,VHD,140207.00,042020,0.000,0.000,0.000,0.000,0.000,0.000,1,13,1.6,M*0D
$PTNL,AVR,140207.50,+17.4378,Yaw,+0.0612,Tilt,,,0.313,3,2.0,12*0A
$GNGGA,140207.50,4846.40142644,N,00854.72619571,E,1,13,0.9,416.891,M,48.645,M,,*7E
$GNGST,140207.50,5.741,0.986,0.814,73.5,0.829,0.973,1.827*72
$PTNL,VHD,140207.50,042020,0.000,0.000,0.000,0.000,0.000,0.000,1,13,1.6,M*08
$PTNL,AVR,140208.00,+18.1414,Yaw,+0.6116,Tilt,,,0.315,3,2.0,12*04
$GNGGA,140208.00,4846.40142686,N,00854.72619680,E,1,13,0.9,416.879,M,48.645,M,,*71
$GNGST,140208.00,6.006,0.986,0.814,73.5,0.829,0.973,1.828*70
$PTNL,VHD,140208.00,042020,0.000,0.000,0.000,0.000,0.000,0.000,1,13,1.6,M*02
$PTNL,AVR,140208.50,+17.6368,Yaw,+1.4002,Tilt,,,0.313,3,2.0,12*04
$GNGGA,140208.50,4846.40142724,N,00854.72619790,E,1,13,0.9,416.868,M,48.645,M,,*7D
$GNGST,140208.50,5.951,0.986,0.814,73.3,0.829,0.973,1.827*74
$PTNL,VHD,140208.50,042020,0.000,0.000,0.000,0.000,0.000,0.000,1,13,1.6,M*07
$PTNL,AVR,140209.00,+17.9274,Yaw,+0.5910,Tilt,,,0.317,3,2.0,12*0D
$GNGGA,140209.00,4846.40142756,N,00854.72619897,E,1,13,0.9,416.858,M,48.645,M,,*77
$GNGST,140209.00,6.214,0.987,0.818,73.9,0.832,0.975,1.915*72
$PTNL,VHD,140209.00,042020,0.000,0.000,0.000,0.000,0.000,0.000,1,13,1.6,M*03
$PTNL,AVR,140209.50,+17.0313,Yaw,+1.0880,Tilt,,,0.313,3,2.0,12*09
$GNGGA,140209.50,4846.40142787,N,00854.72619998,E,1,13,0.9,416.848,M,48.645,M,,*71
$GNGST,140209.50,6.439,0.986,0.815,73.6,0.830,0.974,1.827*7E
$PTNL,VHD,140209.50,042020,0.000,0.000,0.000,0.000,0.000,0.000,1,13,1.6,M*06
$PTNL,AVR,140210.00,+17.3988,Yaw,+0.4191,Tilt,,,0.314,3,2.0,12*04
$GNGGA,140210.00,4846.40142812,N,00854.72620093,E,1,13,0.9,416.838,M,48.645,M,,*70
$GNGST,140210.00,6.371,0.986,0.815,73.7,0.830,0.974,1.826*78
$PTNL,VHD,140210.00,042020,0.000,0.000,0.000,0.000,0.000,0.000,1,13,1.6,M*0B
$PTNL,AVR,140210.50,+17.3203,Yaw,+0.4943,Tilt,,,0.314,3,2.0,12*0E
$GNGGA,140210.50,4846.40142840,N,00854.72620194,E,1,13,0.9,416.827,M,48.645,M,,*7A
$GNGST,140210.50,6.450,0.986,0.815,73.6,0.830,0.973,1.827*7E
$PTNL,VHD,140210.50,042020,0.000,0.000,0.000,0.000,0.000,0.000,1,13,1.6,M*0E
$PTNL,AVR,140211.00,+17.5702,Yaw,+0.1192,Tilt,,,0.314,3,2.0,12*09
$GNGGA,140211.00,4846.40142859,N,00854.72620283,E,1,13,0.9,416.818,M,48.645,M,,*7F
$GNGST,140211.00,6.480,0.987,0.820,74.3,0.834,0.976,1.923*76
$PTNL,VHD,140211.00,042020,0.000,0.000,0.000,0.000,0.000,0.000,1,13,1.6,M*0A
$PTNL,AVR,140211.50,+17.5468,Yaw,+0.7093,Tilt,,,0.314,3,2.0,12*05
$GNGGA,140211.50,4846.40142874,N,00854.72620354,E,1,13,0.9,416.809,M,48.645,M,,*7E
$GNGST,140211.50,6.622,0.988,0.822,74.7,0.835,0.977,1.927*74
$PTNL,VHD,140211.50,042020,0.000,0.000,0.000,0.000,0.000,0.000,1,13,1.6,M*0F
$PTNL,AVR,140212.00,+17.1380,Yaw,-0.1339,Tilt,,,0.313,3,2.0,12*02
$GNGGA,140212.00,4846.40142890,N,00854.72620416,E,1,13,0.9,416.800,M,48.645,M,,*7A
$GNGST,140212.00,6.885,0.988,0.822,74.9,0.835,0.978,1.914*70
$PTNL,VHD,140212.00,042020,0.000,0.000,0.000,0.000,0.000,0.000,1,13,1.6,M*09
$PTNL,AVR,140212.50,+17.3120,Yaw,-0.0353,Tilt,,,0.313,3,2.0,12*00
$GNGGA,140212.50,4846.40142904,N,00854.72620470,E,1,13,0.9,416.791,M,48.645,M,,*74
$GNGST,140212.50,6.928,0.988,0.824,75.1,0.836,0.978,1.935*7C
$PTNL,VHD,140212.50,042020,0.000,0.000,0.000,0.000,0.000,0.000,1,13,1.6,M*0C
$PTNL,AVR,140213.00,+17.6948,Yaw,-0.1352,Tilt,,,0.314,3,2.0,12*00
$GNGGA,140213.00,4846.40142918,N,00854.72620517,E,1,13,0.9,416.783,M,48.645,M,,*7E
$GNGST,140213.00,6.904,0.988,0.823,75.0,0.835,0.978,1.915*71
$PTNL,VHD,140213.00,042020,0.000,0.000,0.000,0.000,0.000,0.000,1,13,1.6,M*08
$PTNL,AVR,140213.50,+17.2927,Yaw,+1.3587,Tilt,,,0.315,3,2.0,12*02
$GNGGA,140213.50,4846.40142937,N,00854.72620571,E,1,13,0.9,416.774,M,48.645,M,,*7E
$GNGST,140213.50,7.099,0.986,0.817,73.9,0.831,0.974,1.826*77
$PTNL,VHD,140213.50,042020,0.000,0.000,0.000,0.000,0.000,0.000,1,13,1.6,M*0D
$PTNL,AVR,140214.00,+17.4098,Yaw,+1.0420,Tilt,,,0.315,3,2.0,12*04
$GNGGA,140214.00,4846.40142953,N,00854.72620632,E,1,13,0.9,416.765,M,48.645,M,,*7A
$GNGST,140214.00,7.554,0.985,0.815,73.5,0.830,0.972,1.828*75
$PTNL,VHD,140214.00,042020,0.000,0.000,0.000,0.000,0.000,0.000,1,13,1.6,M*0F
$PTNL,AVR,140214.50,+17.5309,Yaw,+0.5305,Tilt,,,0.313,3,2.0,12*09
$GNGGA,140214.50,4846.40142966,N,00854.72620694,E,1,13,0.9,416.756,M,48.645,M,,*75
$GNGST,140214.50,7.681,0.984,0.814,73.3,0.830,0.971,1.826*70
$PTNL,VHD,140214.50,042020,0.000,0.000,0.000,0.000,0.000,0.000,1,13,1.6,M*0A
$PTNL,AVR,140215.00,+17.3152,Yaw,+0.4629,Tilt,,,0.314,3,2.0,12*0A
$GNGGA,140215.00,4846.40142975,N,00854.72620754,E,1,13,0.9,416.748,M,48.645,M,,*71
$GNGST,140215.00,7.916,0.984,0.814,73.2,0.829,0.971,1.827*7D
$PTNL,VHD,140215.00,042020,0.000,0.000,0.000,0.000,0.000,0.000,1,13,1.6,M*0E
$PTNL,AVR,140215.50,+17.6780,Yaw,-0.1833,Tilt,,,0.314,3,2.0,12*05
$GNGGA,140215.50,4846.40142982,N,00854.72620814,E,1,13,0.9,416.739,M,48.645,M,,*71
$GNGST,140215.50,8.055,0.984,0.814,73.2,0.829,0.971,1.827*79
$PTNL,VHD,140215.50,042020,0.000,0.000,0.000,0.000,0.000,0.000,1,13,1.6,M*0B
$PTNL,AVR,140216.00,+18.4556,Yaw,-0.4982,Tilt,,,0.315,3,2.0,12*08
$GNGGA,140216.00,4846.40142988,N,00854.72620871,E,1,13,0.9,416.731,M,48.645,M,,*76
$GNGST,140216.00,8.153,0.984,0.814,73.3,0.829,0.971,1.826*78
$PTNL,VHD,140216.00,042020,0.000,0.000,0.000,0.000,0.000,0.000,1,13,1.6,M*0D
$PTNL,AVR,140216.50,+18.3920,Yaw,-0.1686,Tilt,,,0.318,3,2.0,12*04
$GNGGA,140216.50,4846.40142991,N,00854.72620925,E,1,13,0.9,416.724,M,48.645,M,,*7F
$GNGST,140216.50,8.528,0.984,0.814,73.3,0.829,0.971,1.826*75
$PTNL,VHD,140216.50,042020,0.000,0.000,0.000,0.000,0.000,0.000,1,13,1.6,M*08
$PTNL,AVR,140217.00,+17.8448,Yaw,-0.1669,Tilt,,,0.316,3,2.0,12*08
$GNGGA,140217.00,4846.40142991,N,00854.72620976,E,1,13,0.9,416.716,M,48.645,M,,*7C
$GNGST,140217.00,9.265,0.984,0.814,73.3,0.829,0.971,1.826*7E
$PTNL,VHD,140217.00,042020,0.000,0.000,0.000,0.000,0.000,0.000,1,13,1.6,M*0C
$PTNL,AVR,140217.50,+18.3733,Yaw,+0.3150,Tilt,,,0.313,3,2.0,12*0A
$GNGGA,140217.50,4846.40142989,N,00854.72621028,E,1,13,0.9,416.709,M,48.645,M,,*7D
$GNGST,140217.50,9.540,0.984,0.814,73.3,0.829,0.971,1.826*7B
$PTNL,VHD,140217.50,042020,0.000,0.000,0.000,0.000,0.000,0.000,1,13,1.6,M*09
$PTNL,AVR,140218.00,+18.3311,Yaw,+0.1891,Tilt,,,0.315,3,2.0,12*04
$GNGGA,140218.00,4846.40142985,N,00854.72621078,E,1,13,0.9,416.702,M,48.645,M,,*75
$GNGST,140218.00,9.956,0.986,0.819,74.3,0.832,0.975,1.832*79
$PTNL,VHD,140218.00,042020,0.000,0.000,0.000,0.000,0.000,0.000,1,13,1.6,M*03
$PTNL,AVR,140218.50,+18.0299,Yaw,+0.0049,Tilt,,,0.314,3,2.0,12*0E
$GNGGA,140218.50,4846.40142980,N,00854.72621127,E,1,13,0.9,416.695,M,48.645,M,,*71
$GNGST,140218.50,10.125,0.986,0.821,74.6,0.833,0.975,1.834*41
$PTNL,VHD,140218.50,042020,0.000,0.000,0.000,0.000,0.000,0.000,1,13,1.6,M*06
$PTNL,AVR,140219.00,+18.2918,Yaw,+0.6834,Tilt,,,0.315,3,2.0,12*0F
$GNGGA,140219.00,4846.40142975,N,00854.72621179,E,1,13,0.9,416.688,M,48.645,M,,*78
$GNGST,140219.00,10.305,0.984,0.815,73.4,0.830,0.971,1.824*43
$PTNL,VHD,140219.00,042020,0.000,0.000,0.000,0.000,0.000,0.000,1,13,1.6,M*02
$PTNL,AVR,140219.50,+18.0488,Yaw,-0.4745,Tilt,,,0.319,3,2.0,12*0D
$GNGGA,140219.50,4846.40142967,N,00854.72621234,E,1,13,0.9,416.681,M,48.645,M,,*7D
$GNGST,140219.50,10.286,0.984,0.815,73.5,0.830,0.972,1.825*4F
$PTNL,VHD,140219.50,042020,0.000,0.000,0.000,0.000,0.000,0.000,1,13,1.6,M*07
$PTNL,AVR,140220.00,+17.8084,Yaw,+0.7951,Tilt,,,0.317,3,2.0,12*0D
$GNGGA,140220.00,4846.40142958,N,00854.72621293,E,1,13,0.9,416.675,M,48.645,M,,*78
$GNGST,140220.00,10.586,0.986,0.820,74.4,0.833,0.975,1.833*46
$PTNL,VHD,140220.00,042020,0.000,0.000,0.000,0.000,0.000,0.000,1,13,1.6,M*08
$PTNL,AVR,140220.50,+17.9428,Yaw,+0.9733,Tilt,,,0.314,3,2.0,12*0C
$GNGGA,140220.50,4846.40142947,N,00854.72621355,E,1,13,0.9,416.668,M,48.645,M,,*74
$GNGST,140220.50,10.316,0.986,0.820,74.5,0.833,0.975,1.833*4D
$PTNL,VHD,140220.50,042020,0.000,0.000,0.000,0.000,0.000,0.000,1,13,1.6,M*0D
$PTNL,AVR,140221.00,+18.4082,Yaw,+1.0298,Tilt,,,0.313,3,2.0,12*05
$GNGGA,140221.00,4846.40142935,N,00854.72621416,E,1,13,0.9,416.661,M,48.645,M,,*7C
$GNGST,140221.00,10.067,0.986,0.821,74.7,0.834,0.975,1.834*4F
$PTNL,VHD,140221.00,042020,0.000,0.000,0.000,0.000,0.000,0.000,1,13,1.6,M*09
$PTNL,AVR,140221.50,+18.0395,Yaw,+0.3970,Tilt,,,0.316,3,2.0,12*0B
$GNGGA,140221.50,4846.40142924,N,00854.72621475,E,1,13,0.9,416.655,M,48.645,M,,*7B
$GNGST,140221.50,9.620,0.985,0.820,74.3,0.833,0.974,1.832*71
$PTNL,VHD,140221.50,042020,0.000,0.000,0.000,0.000,0.000,0.000,1,13,1.6,M*0C
$PTNL,AVR,140222.00,+17.3595,Yaw,+1.8615,Tilt,,,0.315,3,2.0,12*02
$GNGGA,140222.00,4846.40142910,N,00854.72621533,E,1,13,0.9,416.649,M,48.645,M,,*74
$GNGST,140222.00,9.251,0.984,0.819,74.2,0.833,0.973,1.830*7A
$PTNL,VHD,140222.00,042020,0.000,0.000,0.000,0.000,0.000,0.000,1,13,1.6,M*0A
$PTNL,AVR,140222.50,+17.7369,Yaw,+0.5327,Tilt,,,0.315,3,2.0,12*0E
$GNGGA,140222.50,4846.40142897,N,00854.72621589,E,1,13,0.9,416.643,M,48.645,M,,*74
$GNGST,140222.50,9.153,0.985,0.820,74.4,0.833,0.974,1.833*77
$PTNL,VHD,140222.50,042020,0.000,0.000,0.000,0.000,0.000,0.000,1,13,1.6,M*0F
$PTNL,AVR,140223.00,+17.6612,Yaw,+0.6959,Tilt,,,0.314,3,2.0,12*03
$GNGGA,140223.00,4846.40142883,N,00854.72621642,E,1,13,0.9,416.637,M,48.645,M,,*72
$GNGST,140223.00,8.824,0.985,0.820,74.4,0.833,0.974,1.833*7B
$PTNL,VHD,140223.00,042020,0.000,0.000,0.000,0.000,0.000,0.000,1,13,1.6,M*0B
$PTNL,AVR,140223.50,+18.6723,Yaw,+0.0243,Tilt,,,0.315,3,2.0,12*0D
$GNGGA,140223.50,4846.40142868,N,00854.72621690,E,1,13,0.9,416.631,M,48.645,M,,*7B
$GNGST,140223.50,8.519,0.984,0.820,74.3,0.833,0.973,1.831*7E
$PTNL,VHD,140223.50,042020,0.000,0.000,0.000,0.000,0.000,0.000,1,13,1.6,M*0E
$PTNL,AVR,140224.00,+18.3338,Yaw,+0.1272,Tilt,,,0.314,3,2.0,12*06
$GNGGA,140224.00,4846.40142851,N,00854.72621736,E,1,13,0.9,416.626,M,48.645,M,,*78
$GNGST,140224.00,8.420,0.984,0.820,74.3,0.833,0.973,1.831*77
$PTNL,VHD,140224.00,042020,0.000,0.000,0.000,0.000,0.000,0.000,1,13,1.6,M*0C
$PTNL,AVR,140224.50,+17.8633,Yaw,+1.7464,Tilt,,,0.314,3,2.0,12*0F
$GNGGA,140224.50,4846.40142832,N,00854.72621778,E,1,13,0.9,416.620,M,48.645,M,,*74
$GNGST,140224.50,8.258,0.983,0.815,73.4,0.830,0.970,1.825*7F
$PTNL,VHD,140224.50,042020,0.000,0.000,0.000,0.000,0.000,0.000,1,13,1.6,M*09
$PTNL,AVR,140225.00,+17.9382,Yaw,+1.5095,Tilt,,,0.316,3,2.0,12*0F
$GNGGA,140225.00,4846.40142811,N,00854.72621815,E,1,13,0.9,416.615,M,48.645,M,,*73
$GNGST,140225.00,8.400,0.984,0.820,74.3,0.833,0.973,1.832*77
$PTNL,VHD,140225.00,042020,0.000,0.000,0.000,0.000,0.000,0.000,1,13,1.6,M*0D
$PTNL,AVR,140225.50,+17.7927,Yaw,+1.5324,Tilt,,,0.313,3,2.0,12*0D
$GNGGA,140225.50,4846.40142788,N,00854.72621848,E,1,13,0.9,416.610,M,48.645,M,,*74
$GNGST,140225.50,8.460,0.983,0.815,73.4,0.830,0.970,1.825*73
$PTNL,VHD,140225.50,042020,0.000,0.000,0.000,0.000,0.000,0.000,1,13,1.6,M*08
$PTNL,AVR,140226.00,+17.7708,Yaw,+2.2495,Tilt,,,0.312,3,2.0,12*00
$GNGGA,140226.00,4846.40142764,N,00854.72621879,E,1,13,0.9,416.605,M,48.645,M,,*76
$GNGST,140226.00,8.251,0.982,0.815,73.3,0.830,0.969,1.824*7E
$PTNL,VHD,140226.00,042020,0.000,0.000,0.000,0.000,0.000,0.000,1,13,1.6,M*0E
$PTNL,AVR,140226.50,+18.2634,Yaw,+1.2069,Tilt,,,0.315,3,2.0,12*02
$GNGGA,140226.50,4846.40142738,N,00854.72621907,E,1,13,0.9,416.601,M,48.645,M,,*76
$GNGST,140226.50,8.577,0.982,0.815,73.4,0.830,0.970,1.825*76
$PTNL,VHD,140226.50,042020,0.000,0.000,0.000,0.000,0.000,0.000,1,13,1.6,M*0B
$PTNL,AVR,140227.00,+17.4762,Yaw,+1.0340,Tilt,,,0.313,3,2.0,12*01
$GNGGA,140227.00,4846.40142712,N,00854.72621933,E,1,13,0.9,416.596,M,48.645,M,,*70
$GNGST,140227.00,8.495,0.982,0.815,73.3,0.830,0.969,1.824*71
$PTNL,VHD,140227.00,042020,0.000,0.000,0.000,0.000,0.000,0.000,1,13,1.6,M*0F
$PTNL,AVR,140227.50,+17.3229,Yaw,+1.6672,Tilt,,,0.310,3,2.0,12*08
$GNGGA,140227.50,4846.40142683,N,00854.72621958,E,1,13,0.9,416.592,M,48.645,M,,*75
$GNGST,140227.50,8.361,0.982,0.815,73.3,0.830,0.970,1.825*71
$PTNL,VHD,140227.50,042020,0.000,0.000,0.000,0.000,0.000,0.000,1,13,1.6,M*0A
$PTNL,AVR,140228.00,+17.5038,Yaw,+0.5995,Tilt,,,0.311,3,2.0,12*03
$GNGGA,140228.00,4846.40142653,N,00854.72621981,E,1,13,0.9,416.588,M,48.645,M,,*7D
$GNGST,140228.00,8.457,0.983,0.818,74.0,0.832,0.972,1.830*75
$PTNL,VHD,140228.00,042020,0.000,0.000,0.000,0.000,0.000,0.000,1,13,1.6,M*00
$PTNL,AVR,140228.50,+17.9073,Yaw,+0.2616,Tilt,,,0.312,3,2.0,12*05
$GNGGA,140228.50,4846.40142621,N,00854.72622000,E,1,13,0.9,416.584,M,48.645,M,,*72
$GNGST,140228.50,8.503,0.982,0.815,73.3,0.830,0.969,1.825*74
$PTNL,VHD,140228.50,042020,0.000,0.000,0.000,0.000,0.000,0.000,1,13,1.6,M*05
$PTNL,AVR,140229.00,+17.9402,Yaw,+0.2458,Tilt,,,0.314,3,2.0,12*0D
$GNGGA,140229.00,4846.40142588,N,00854.72622016,E,1,13,0.9,416.580,M,48.645,M,,*75
$GNGST,140229.00,8.268,0.982,0.814,73.2,0.830,0.969,1.824*7B
$PTNL,VHD,140229.00,042020,0.000,0.000,0.000,0.000,0.000,0.000,1,13,1.6,M*01
$PTNL,AVR,140229.50,+17.2768,Yaw,+1.5398,Tilt,,,0.311,3,2.0,12*04
$GNGGA,140229.50,4846.40142554,N,00854.72622032,E,1,13,0.9,416.576,M,48.645,M,,*7E
$GNGST,140229.50,8.377,0.982,0.815,73.3,0.830,0.969,1.825*70
$PTNL,VHD,140229.50,042020,0.000,0.000,0.000,0.000,0.000,0.000,1,13,1.6,M*04
$PTNL,AVR,140230.00,+16.9813,Yaw,+2.1677,Tilt,,,0.314,3,2.0,12*06
$GNGGA,140230.00,4846.40142519,N,00854.72622048,E,1,13,0.9,416.572,M,48.645,M,,*73
$GNGST,140230.00,8.294,0.982,0.815,73.4,0.830,0.970,1.826*7D
$PTNL,VHD,140230.00,042020,0.000,0.000,0.000,0.000,0.000,0.000,1,13,1.6,M*09
$PTNL,AVR,140230.50,+17.7564,Yaw,+1.6919,Tilt,,,0.311,3,2.0,12*07
$GNGGA,140230.50,4846.40142484,N,00854.72622064,E,1,13,0.9,416.568,M,48.645,M,,*76
$GNGST,140230.50,8.166,0.984,0.820,74.3,0.833,0.973,1.833*72
$PTNL,VHD,140230.50,042020,0.000,0.000,0.000,0.000,0.000,0.000,1,13,1.6,M*0C
$PTNL,AVR,140231.00,+17.9964,Yaw,+1.4585,Tilt,,,0.315,3,2.0,12*0E
$GNGGA,140231.00,4846.40142448,N,00854.72622078,E,1,13,0.9,416.565,M,48.645,M,,*72
$GNGST,140231.00,8.278,0.982,0.815,73.4,0.830,0.970,1.826*7E
$PTNL,VHD,140231.00,042020,0.000,0.000,0.000,0.000,0.000,0.000,1,13,1.6,M*08
$PTNL,AVR,140231.50,+17.1258,Yaw,+0.7441,Tilt,,,0.312,3,2.0,12*0B
$GNGGA,140231.50,4846.40142412,N,00854.72622091,E,1,13,0.9,416.561,M,48.645,M,,*7B
$GNGST,140231.50,8.578,0.982,0.815,73.4,0.830,0.969,1.826*74
$PTNL,VHD,140231.50,042020,0.000,0.000,0.000,0.000,0.000,0.000,1,13,1.6,M*0D
$PTNL,AVR,140232.00,+17.4798,Yaw,+1.2565,Tilt,,,0.309,3,2.0,12*08
$GNGGA,140232.00,4846.40142376,N,00854.72622103,E,1,13,0.9,416.558,M,48.645,M,,*78
$GNGST,140232.00,8.427,0.982,0.815,73.3,0.830,0.969,1.825*7D
$PTNL,VHD,140232.00,042020,0.000,0.000,0.000,0.000,0.000,0.000,1,13,1.6,M*0B
$PTNL,AVR,140232.50,+17.0527,Yaw,+0.0025,Tilt,,,0.315,3,2.0,12*00
$GNGGA,140232.50,4846.40142340,N,00854.72622111,E,1,13,0.9,416.555,M,48.645,M,,*76
$GNGST,140232.50,8.520,0.982,0.815,73.3,0.830,0.969,1.826*7D
$PTNL,VHD,140232.50,042020,0.000,0.000,0.000,0.000,0.000,0.000,1,13,1.6,M*0E
$PTNL,AVR,140233.00,+16.4604,Yaw,-0.0808,Tilt,,,0.317,3,2.0,12*00
$GNGGA,140233.00,4846.40142305,N,00854.72622117,E,1,13,0.9,416.552,M,48.645,M,,*72
$GNGST,140233.00,8.698,0.983,0.819,74.1,0.832,0.972,1.832*7C
$PTNL,VHD,140233.00,042020,0.000,0.000,0.000,0.000,0.000,0.000,1,13,1.6,M*0A
$PTNL,AVR,140233.50,+17.0113,Yaw,+0.9971,Tilt,,,0.312,3,2.0,12*04
$GNGGA,140233.50,4846.40142269,N,00854.72622121,E,1,13,0.9,416.549,M,48.645,M,,*73
$GNGST,140233.50,8.584,0.982,0.815,73.4,0.830,0.969,1.827*74
$PTNL,VHD,140233.50,042020,0.000,0.000,0.000,0.000,0.000,0.000,1,13,1.6,M*0F
$PTNL,AVR,140234.00,+17.9833,Yaw,+1.0926,Tilt,,,0.313,3,2.0,12*0F
$GNGGA,140234.00,4846.40142232,N,00854.72622124,E,1,13,0.9,416.546,M,48.645,M,,*75
$GNGST,140234.00,8.470,0.982,0.815,73.4,0.830,0.970,1.828*7B
$PTNL,VHD,140234.00,042020,0.000,0.000,0.000,0.000,0.000,0.000,1,13,1.6,M*0D
$PTNL,AVR,140234.50,+17.1550,Yaw,+1.0499,Tilt,,,0.315,3,2.0,12*05
$GNGGA,140234.50,4846.40142195,N,00854.72622125,E,1,13,0.9,416.543,M,48.645,M,,*7A
$GNGST,140234.50,8.389,0.983,0.819,74.2,0.833,0.972,1.834*7F
$PTNL,VHD,140234.50,042020,0.000,0.000,0.000,0.000,0.000,0.000,1,13,1.6,M*08
$PTNL,AVR,140235.00,+17.3676,Yaw,+1.9722,Tilt,,,0.318,3,2.0,12*03
$GNGGA,140235.00,4846.40142157,N,00854.72622125,E,1,13,0.9,416.540,M,48.645,M,,*73
$GNGST,140235.00,8.156,0.984,0.820,74.4,0.833,0.973,1.835*70
$PTNL,VHD,140235.00,042020,0.000,0.000,0.000,0.000,0.000,0.000,1,13,1.6,M*0C
$PTNL,AVR,140235.50,+17.2542,Yaw,+2.0660,Tilt,,,0.311,3,2.0,12*07
$GNGGA,140235.50,4846.40142118,N,00854.72622125,E,1,13,0.9,416.537,M,48.645,M,,*7D
$GNGST,140235.50,8.048,0.982,0.816,73.4,0.831,0.969,1.828*7A
$PTNL,VHD,140235.50,042020,0.000,0.000,0.000,0.000,0.000,0.000,1,13,1.6,M*09
$PTNL,AVR,140236.00,+17.1677,Yaw,+2.6620,Tilt,,,0.313,3,2.0,12*07
$GNGGA,140236.00,4846.40142078,N,00854.72622126,E,1,13,0.9,416.535,M,48.645,M,,*7D
$GNGST,140236.00,7.680,0.982,0.816,73.5,0.830,0.970,1.830*70
$PTNL,VHD,140236.00,042020,0.000,0.000,0.000,0.000,0.000,0.000,1,13,1.6,M*0F
$PTNL,AVR,140236.50,+17.3233,Yaw,+2.5297,Tilt,,,0.314,3,2.0,12*08
$GNGGA,140236.50,4846.40142038,N,00854.72622127,E,1,13,0.9,416.532,M,48.645,M,,*7A
$GNGST,140236.50,7.493,0.984,0.820,74.4,0.833,0.973,1.836*76
$PTNL,VHD,140236.50,042020,0.000,0.000,0.000,0.000,0.000,0.000,1,13,1.6,M*0A
$PTNL,AVR,140237.00,+17.0627,Yaw,+2.2896,Tilt,,,0.315,3,2.0,12*03
$GNGGA,140237.00,4846.40141999,N,00854.72622129,E,1,13,0.9,416.530,M,48.645,M,,*73
$GNGST,140237.00,7.511,0.983,0.820,74.3,0.833,0.972,1.835*7B
$PTNL,VHD,140237.00,042020,0.000,0.000,0.000,0.000,0.000,0.000,1,13,1.6,M*0E
$PTNL,AVR,140237.50,+17.2265,Yaw,+1.3880,Tilt,,,0.310,3,2.0,12*06
$GNGGA,140237.50,4846.40141960,N,00854.72622131,E,1,13,0.9,416.527,M,48.645,M,,*7F
$GNGST,140237.50,7.514,0.984,0.820,74.3,0.833,0.973,1.836*7E
$PTNL,VHD,140237.50,042020,0.000,0.000,0.000,0.000,0.000,0.000,1,13,1.6,M*0B
$PTNL,AVR,140238.00,+16.5105,Yaw,+1.8185,Tilt,,,0.310,3,2.0,12*08
$GNGGA,140238.00,4846.40141920,N,00854.72622132,E,1,13,0.9,416.525,M,48.645,M,,*70
$GNGST,140238.00,7.748,0.982,0.816,73.5,0.830,0.970,1.830*7B
$PTNL,VHD,140238.00,042020,0.000,0.000,0.000,0.000,0.000,0.000,1,13,1.6,M*01
$PTNL,AVR,140238.50,+17.5030,Yaw,+1.7815,Tilt,,,0.313,3,2.0,12*07
$GNGGA,140238.50,4846.40141880,N,00854.72622131,E,1,13,0.9,416.523,M,48.645,M,,*7B
$GNGST,140238.50,8.124,0.982,0.815,73.4,0.830,0.969,1.829*7F
$PTNL,VHD,140238.50,042020,0.000,0.000,0.000,0.000,0.000,0.000,1,13,1.6,M*04
$PTNL,AVR,140239.00,+17.2502,Yaw,+2.0154,Tilt,,,0.313,3,2.0,12*08
$GNGGA,140239.00,4846.40141841,N,00854.72622131,E,1,13,0.9,416.520,M,48.645,M,,*71
$GNGST,140239.00,8.151,0.982,0.815,73.5,0.830,0.970,1.830*78
$PTNL,VHD,140239.00,042020,0.000,0.000,0.000,0.000,0.000,0.000,1,13,1.6,M*00
$PTNL,AVR,140239.50,+17.6142,Yaw,+1.9101,Tilt,,,0.312,3,2.0,12*02
$GNGGA,140239.50,4846.40141801,N,00854.72622130,E,1,13,0.9,416.518,M,48.645,M,,*7A
$GNGST,140239.50,7.988,0.982,0.815,73.5,0.830,0.970,1.830*7E
$PTNL,VHD,140239.50,042020,0.000,0.000,0.000,0.000,0.000,0.000,1,13,1.6,M*05
$PTNL,AVR,140240.00,+17.6363,Yaw,+2.8822,Tilt,,,0.310,3,2.0,12*00
$GNGGA,140240.00,4846.40141761,N,00854.72622130,E,1,13,0.9,416.516,M,48.645,M,,*76
$GNGST,140240.00,7.252,0.982,0.816,73.5,0.830,0.970,1.830*7A
$PTNL,VHD,140240.00,042020,0.000,0.000,0.000,0.000,0.000,0.000,1,13,1.6,M*0E
$PTNL,AVR,140240.50,+16.9952,Yaw,+2.6541,Tilt,,,0.315,3,2.0,12*00
$GNGGA,140240.50,4846.40141722,N,00854.72622131,E,1,13,0.9,416.514,M,48.645,M,,*77
$GNGST,140240.50,7.187,0.984,0.820,74.4,0.833,0.973,1.838*79
$PTNL,VHD,140240.50,042020,0.000,0.000,0.000,0.000,0.000,0.000,1,13,1.6,M*0B
$PTNL,AVR,140241.00,+17.2700,Yaw,+2.8832,Tilt,,,0.312,3,2.0,12*07
$GNGGA,140241.00,4846.40141683,N,00854.72622133,E,1,13,0.9,416.512,M,48.645,M,,*7D
$GNGST,140241.00,7.302,0.984,0.820,74.3,0.833,0.973,1.836*7B
$PTNL,VHD,140241.00,042020,0.000,0.000,0.000,0.000,0.000,0.000,1,13,1.6,M*0F
$PTNL,AVR,140241.50,+17.4171,Yaw,+2.5969,Tilt,,,0.316,3,2.0,12*02
$GNGGA,140241.50,4846.40141643,N,00854.72622134,E,1,13,0.9,416.510,M,48.645,M,,*71
$GNGST,140241.50,7.484,0.982,0.816,73.5,0.831,0.970,1.830*72
$PTNL,VHD,140241.50,042020,0.000,0.000,0.000,0.000,0.000,0.000,1,13,1.6,M*0A
$PTNL,AVR,140242.00,+16.6034,Yaw,+3.0144,Tilt,,,0.314,3,2.0,12*06
$GNGGA,140242.00,4846.40141602,N,00854.72622133,E,1,13,0.9,416.508,M,48.645,M,,*7C
$GNGST,140242.00,7.650,0.983,0.816,73.6,0.830,0.971,1.831*7C
$PTNL,VHD,140242.00,042020,0.000,0.000,0.000,0.000,0.000,0.000,1,13,1.6,M*0C
$PTNL,AVR,140242.50,+16.7288,Yaw,+3.3845,Tilt,,,0.313,3,2.0,12*0B
$GNGGA,140242.50,4846.40141561,N,00854.72622132,E,1,13,0.9,416.506,M,48.645,M,,*70
$GNGST,140242.50,7.630,0.983,0.816,73.5,0.830,0.970,1.830*7C
$PTNL,VHD,140242.50,042020,0.000,0.000,0.000,0.000,0.000,0.000,1,13,1.6,M*09
